{
  "metadata": {
    "name": "呉市公共施設・医療施設",
    "category": "facilities",
    "lastUpdated": "2025-10-01"
  },
  "facilities": [
    {
      "id": "fac_001",
      "name": "呉市中央図書館",
      "category": "図書館",
      "type": "library",
      "description": "蔵書約40万冊、学習スペースあり",
      "address": "呉市中央3-1-3",
      "latitude": "34.2482",
      "longitude": "132.5648",
      "openingHours": "9:00-19:00",
      "closedDays": "月曜日、第3木曜日",
      "phone": "0823-25-3560",
      "crowdingLevel": "medium",
      "tags": ["学習", "静か", "Wi-Fi"],
      "barrierFree": true,
      "wifi": true,
      "parking": true
    },
    {
      "id": "fac_002",
      "name": "呉市総合体育館",
      "category": "スポーツ施設",
      "type": "sports",
      "description": "バスケ、バレー、バドミントン等",
      "address": "呉市二河町1-1",
      "latitude": "34.2453",
      "longitude": "132.5515",
      "openingHours": "9:00-22:00",
      "closedDays": "月曜日",
      "phone": "0823-25-3475",
      "crowdingLevel": "low",
      "tags": ["運動", "健康"],
      "barrierFree": true,
      "wifi": false,
      "parking": true
    },
    {
      "id": "fac_003",
      "name": "呉医療センター",
      "category": "医療機関",
      "type": "hospital",
      "description": "救急対応の総合病院",
      "address": "呉市青山町3-1",
      "latitude": "34.2569",
      "longitude": "132.5538",
      "openingHours": "8:30-17:00",
      "closedDays": "土日祝（救急は24時間）",
      "phone": "0823-22-3111",
      "emergency": true,
      "tags": ["救急", "総合病院"],
      "barrierFree": true,
      "wifi": true,
      "parking": true
    },
    {
      "id": "fac_004",
      "name": "呉中通病院",
      "category": "医療機関",
      "type": "hospital",
      "description": "地域医療を支える病院",
      "address": "呉市中通1-3-8",
      "latitude": "34.2492",
      "longitude": "132.5657",
      "openingHours": "8:30-17:00",
      "closedDays": "日祝",
      "phone": "0823-22-2111",
      "emergency": false,
      "tags": ["病院"],
      "barrierFree": true,
      "wifi": false,
      "parking": true
    },
    {
      "id": "fac_005",
      "name": "呉市子育て支援センター",
      "category": "子育て支援",
      "type": "childcare",
      "description": "親子で遊べる交流スペース",
      "address": "呉市中央1-5-3",
      "latitude": "34.2476",
      "longitude": "132.5663",
      "openingHours": "9:00-17:00",
      "closedDays": "日月祝",
      "phone": "0823-25-3597",
      "crowdingLevel": "medium",
      "tags": ["子育て", "相談"],
      "barrierFree": true,
      "wifi": true,
      "parking": true
    },
    {
      "id": "fac_006",
      "name": "呉市福祉会館",
      "category": "福祉施設",
      "type": "welfare",
      "description": "高齢者・障害者向け各種サービス",
      "address": "呉市中央5-12-21",
      "latitude": "34.2501",
      "longitude": "132.5671",
      "openingHours": "8:30-17:00",
      "closedDays": "土日祝",
      "phone": "0823-25-3505",
      "tags": ["福祉", "相談"],
      "barrierFree": true,
      "wifi": false,
      "parking": true
    }
  ]
}
