{
  "metadata": {
    "name": "å‘‰å¸‚ãŠã™ã™ã‚ãƒ«ãƒ¼ãƒˆ",
    "category": "routes",
    "lastUpdated": "2025-10-01"
  },
  "routes": [
    {
      "id": "route_001",
      "name": "æ­´å²ã‚ãã‚Šã‚³ãƒ¼ã‚¹",
      "description": "å‘‰ã®æ­´å²ã¨é€ èˆ¹æŠ€è¡“ã‚’å­¦ã¶å……å®Ÿã®2æ™‚é–“ã‚³ãƒ¼ã‚¹",
      "icon": "ğŸ›ï¸",
      "duration": "2æ™‚é–“",
      "distance": "3.5km",
      "difficulty": "easy",
      "tags": ["æ­´å²", "æ–‡åŒ–", "ãƒ•ã‚¡ãƒŸãƒªãƒ¼"],
      "color": "#2196F3",
      "waypoints": [
        {
          "name": "å‘‰é§…",
          "description": "ã‚¹ã‚¿ãƒ¼ãƒˆåœ°ç‚¹",
          "latitude": 34.2473,
          "longitude": 132.5656,
          "order": 1
        },
        {
          "name": "å¤§å’ŒãƒŸãƒ¥ãƒ¼ã‚¸ã‚¢ãƒ ",
          "description": "æˆ¦è‰¦å¤§å’Œã¨å‘‰ã®æ­´å²ã‚’å­¦ã¶ï¼ˆæ‰€è¦æ™‚é–“ï¼š60åˆ†ï¼‰",
          "latitude": 34.2401,
          "longitude": 132.5495,
          "order": 2,
          "stayDuration": 60
        },
        {
          "name": "ã¦ã¤ã®ãã˜ã‚‰é¤¨",
          "description": "å®Ÿç‰©ã®æ½œæ°´è‰¦ã‚’è¦‹å­¦ï¼ˆæ‰€è¦æ™‚é–“ï¼š45åˆ†ï¼‰",
          "latitude": 34.2405,
          "longitude": 132.5502,
          "order": 3,
          "stayDuration": 45
        },
        {
          "name": "ã‚¢ãƒ¬ã‚¤ã‹ã‚‰ã™ã“ã˜ã¾",
          "description": "æ½œæ°´è‰¦ã‚’é–“è¿‘ã§è¦‹ã‚‹ï¼ˆæ‰€è¦æ™‚é–“ï¼š15åˆ†ï¼‰",
          "latitude": 34.2361,
          "longitude": 132.5584,
          "order": 4,
          "stayDuration": 15
        },
        {
          "name": "å‘‰é§…",
          "description": "ã‚´ãƒ¼ãƒ«",
          "latitude": 34.2473,
          "longitude": 132.5656,
          "order": 5
        }
      ],
      "polyline": [
        [34.2473, 132.5656],
        [34.2445, 132.5620],
        [34.2410, 132.5510],
        [34.2401, 132.5495],
        [34.2405, 132.5502],
        [34.2385, 132.5545],
        [34.2361, 132.5584],
        [34.2395, 132.5620],
        [34.2430, 132.5640],
        [34.2473, 132.5656]
      ]
    },
    {
      "id": "route_002",
      "name": "æµ·è¾ºã®æ•£ç­–ã‚³ãƒ¼ã‚¹",
      "description": "ç€¬æˆ¸å†…æµ·ã®çµ¶æ™¯ã‚’æ¥½ã—ã‚€ãƒªãƒ©ãƒƒã‚¯ã‚¹ã‚³ãƒ¼ã‚¹",
      "icon": "ğŸŒŠ",
      "duration": "1.5æ™‚é–“",
      "distance": "2.8km",
      "difficulty": "easy",
      "tags": ["è‡ªç„¶", "çµ¶æ™¯", "å†™çœŸã‚¹ãƒãƒƒãƒˆ"],
      "color": "#00BCD4",
      "waypoints": [
        {
          "name": "å‘‰ãƒãƒ¼ãƒˆãƒ”ã‚¢ãƒ‘ãƒ¼ã‚¯",
          "description": "ã‚¹ã‚¿ãƒ¼ãƒˆåœ°ç‚¹ãƒ»æµ·è¾ºã®å…¬åœ’",
          "latitude": 34.2920,
          "longitude": 132.5086,
          "order": 1
        },
        {
          "name": "éŸ³æˆ¸ã®ç€¬æˆ¸å…¬åœ’",
          "description": "éŸ³æˆ¸å¤§æ©‹ã¨ç€¬æˆ¸å†…æµ·ã®çµ¶æ™¯ï¼ˆæ‰€è¦æ™‚é–“ï¼š45åˆ†ï¼‰",
          "latitude": 34.1927,
          "longitude": 132.5366,
          "order": 2,
          "stayDuration": 45
        },
        {
          "name": "æµ·å²¸æ²¿ã„æ•£ç­–è·¯",
          "description": "ã®ã‚“ã³ã‚Šæµ·ã‚’çœºã‚ãªãŒã‚‰æ­©ã",
          "latitude": 34.2200,
          "longitude": 132.5250,
          "order": 3
        },
        {
          "name": "å‘‰ãƒãƒ¼ãƒˆãƒ”ã‚¢ãƒ‘ãƒ¼ã‚¯",
          "description": "ã‚´ãƒ¼ãƒ«",
          "latitude": 34.2920,
          "longitude": 132.5086,
          "order": 4
        }
      ],
      "polyline": [
        [34.2920, 132.5086],
        [34.2800, 132.5150],
        [34.2600, 132.5220],
        [34.2400, 132.5280],
        [34.2200, 132.5320],
        [34.2000, 132.5350],
        [34.1927, 132.5366],
        [34.2000, 132.5340],
        [34.2200, 132.5300],
        [34.2400, 132.5250],
        [34.2600, 132.5180],
        [34.2800, 132.5120],
        [34.2920, 132.5086]
      ]
    },
    {
      "id": "route_003",
      "name": "å¥åº·ã‚¦ã‚©ãƒ¼ã‚­ãƒ³ã‚°",
      "description": "é©åº¦ãªã‚¢ãƒƒãƒ—ãƒ€ã‚¦ãƒ³ã§å¥åº·ã¥ãã‚Š",
      "icon": "ğŸƒ",
      "duration": "1æ™‚é–“",
      "distance": "5.0km",
      "difficulty": "medium",
      "tags": ["é‹å‹•", "å¥åº·", "è‡ªç„¶"],
      "color": "#4CAF50",
      "waypoints": [
        {
          "name": "å‘‰å¸‚ç·åˆä½“è‚²é¤¨",
          "description": "ã‚¹ã‚¿ãƒ¼ãƒˆåœ°ç‚¹",
          "latitude": 34.2453,
          "longitude": 132.5515,
          "order": 1
        },
        {
          "name": "æ­´å²ã®è¦‹ãˆã‚‹ä¸˜",
          "description": "å‘‰æ¹¾ã‚’ä¸€æœ›ï¼ˆæ‰€è¦æ™‚é–“ï¼š10åˆ†ï¼‰",
          "latitude": 34.2341,
          "longitude": 132.5565,
          "order": 2,
          "stayDuration": 10
        },
        {
          "name": "å…¥èˆ¹å±±å…¬åœ’",
          "description": "ç·‘è±Šã‹ãªå…¬åœ’ã§ä¼‘æ†©ï¼ˆæ‰€è¦æ™‚é–“ï¼š15åˆ†ï¼‰",
          "latitude": 34.2397,
          "longitude": 132.5625,
          "order": 3,
          "stayDuration": 15
        },
        {
          "name": "ä¸­å¤®å…¬åœ’",
          "description": "å¸‚è¡—åœ°ã®ç·‘åœ°",
          "latitude": 34.2480,
          "longitude": 132.5660,
          "order": 4
        },
        {
          "name": "å‘‰å¸‚ç·åˆä½“è‚²é¤¨",
          "description": "ã‚´ãƒ¼ãƒ«",
          "latitude": 34.2453,
          "longitude": 132.5515,
          "order": 5
        }
      ],
      "polyline": [
        [34.2453, 132.5515],
        [34.2430, 132.5530],
        [34.2400, 132.5545],
        [34.2370, 132.5555],
        [34.2341, 132.5565],
        [34.2360, 132.5590],
        [34.2380, 132.5610],
        [34.2397, 132.5625],
        [34.2420, 132.5640],
        [34.2450, 132.5655],
        [34.2480, 132.5660],
        [34.2490, 132.5630],
        [34.2485, 132.5600],
        [34.2470, 132.5570],
        [34.2453, 132.5515]
      ]
    }
  ]
}
